City,Country,Date,Latitude,Longitude,Temperature,Max Temperature,Humidity,Clouds,Wind Speed
Mitú,CO,1627415832.0,1.1983,-70.1733,79.0,79.0,92.0,100.0,0.76
East London,ZA,1627415833.0,-33.0153,27.9116,73.15,73.15,30.0,0.0,8.08
Hobart,AU,1627415799.0,-42.8794,147.3294,54.7,55.92,68.0,61.0,4.0
Santa Isabel Rio Negro,BR,1627415833.0,-0.4139,-65.0192,79.84,79.84,80.0,100.0,2.48
Bellavista,PE,1627415834.0,-7.0561,-76.5911,90.88,92.48,55.0,0.0,0.0
Mataura,NZ,1627415834.0,-46.1927,168.8643,48.47,48.47,97.0,25.0,1.25
Upernavik,GL,1627415835.0,72.7868,-56.1549,49.69,49.69,78.0,100.0,8.5
Lishan,CN,1627415835.0,31.8576,113.2951,76.35,76.35,90.0,43.0,8.99
Port Elizabeth,ZA,1627415777.0,-33.918,25.5701,61.09,61.11,88.0,40.0,14.97
Qaanaaq,GL,1627415836.0,77.484,-69.3632,42.3,42.3,97.0,100.0,4.14
Dobrinka,RU,1627415836.0,52.1653,40.4731,65.68,65.68,75.0,18.0,3.56
Pochutla,MX,1627415836.0,15.7432,-96.4661,88.83,88.83,60.0,99.0,5.37
Mar del Plata,AR,1627415837.0,-38.0023,-57.5575,47.55,48.99,69.0,75.0,11.99
Port Alfred,ZA,1627415837.0,-33.5906,26.891,71.38,71.38,28.0,4.0,20.74
Airai,TL,1627415838.0,-8.9266,125.4092,56.39,56.39,69.0,60.0,2.93
Morón,AR,1627415838.0,-34.6534,-58.6198,50.99,52.02,46.0,25.0,7.0
Kiunga,PG,1627415838.0,-6.1219,141.2906,73.33,73.33,99.0,100.0,1.72
Alofi,NU,1627415839.0,-19.0595,-169.9187,69.69,69.69,94.0,99.0,1.14
Buchanan,LR,1627415567.0,5.8808,-10.0467,75.16,75.16,79.0,100.0,10.96
Forssa,FI,1627415839.0,60.8146,23.6215,67.08,73.67,59.0,20.0,5.37
Lebu,CL,1627415840.0,-37.6167,-73.65,48.85,48.85,71.0,0.0,25.17
Kulhudhuffushi,MV,1627415840.0,6.6221,73.07,82.38,82.38,77.0,100.0,16.22
Rome,US,1627415841.0,43.2128,-75.4557,69.93,70.81,91.0,90.0,3.44
Vardø,NO,1627415841.0,70.3705,31.1107,46.38,53.8,93.0,75.0,11.5
Diamantino,BR,1627415842.0,-14.4086,-56.4461,95.58,95.58,20.0,31.0,5.44
Dikson,RU,1627415842.0,73.5069,80.5464,43.16,43.16,100.0,100.0,16.67
Tuatapere,NZ,1627415153.0,-46.1333,167.6833,48.81,48.81,91.0,9.0,2.46
Ushuaia,AR,1627415600.0,-54.8,-68.3,37.06,37.06,87.0,90.0,0.0
Gizo Government Station,SB,1627415843.0,-8.103,156.8419,81.57,81.57,77.0,78.0,7.81
Castro,BR,1627415618.0,-24.7911,-50.0119,54.91,54.91,95.0,100.0,8.86
Ngaoundéré,CM,1627415843.0,7.3167,13.5833,62.78,62.78,96.0,100.0,1.5
Durango,MX,1627415835.0,24.8333,-104.8333,81.73,81.73,25.0,21.0,9.93
Takaka,NZ,1627415844.0,-40.85,172.8,47.52,47.55,82.0,0.0,4.16
Busselton,AU,1627415844.0,-33.65,115.3333,46.04,46.04,64.0,100.0,12.33
Canutama,BR,1627415845.0,-6.5339,-64.3831,99.23,99.23,24.0,7.0,2.91
Asău,RO,1627415583.0,46.4333,26.4,73.11,74.32,79.0,78.0,5.44
Khatanga,RU,1627415845.0,71.9667,102.5,74.37,74.37,57.0,100.0,15.41
Malakal,SS,1627415846.0,9.5334,31.6605,71.04,71.04,92.0,87.0,1.95
Vaini,TO,1627415846.0,-21.2,-175.2,68.16,68.16,94.0,90.0,6.91
Grand Gaube,MU,1627415846.0,-20.0064,57.6608,67.37,67.37,90.0,55.0,5.99
Jiayuguan City,CN,1627415847.0,39.8167,98.3,72.63,72.63,28.0,39.0,4.81
Blackwater,AU,1627415847.0,-23.5833,148.8833,53.69,53.69,92.0,4.0,5.64
Punta Arenas,CL,1627415848.0,-53.15,-70.9167,42.53,42.91,87.0,75.0,11.5
Albany,US,1627415813.0,42.6001,-73.9662,82.92,88.61,62.0,27.0,8.1
La Macarena,CO,1627415848.0,2.1837,-73.7849,83.48,83.48,66.0,38.0,2.86
Atuona,PF,1627415849.0,-9.8,-139.0333,77.86,77.86,70.0,20.0,19.01
Eyl,SO,1627415849.0,7.9803,49.8164,81.99,81.99,59.0,99.0,23.94
Bhuj,IN,1627415850.0,23.2667,69.6667,80.87,80.87,81.0,100.0,23.44
Neyvo-Shaytanskiy,RU,1627415850.0,57.7286,61.2496,45.09,45.09,85.0,8.0,5.57
Margate,GB,1627415851.0,51.3813,1.3862,63.19,65.7,80.0,31.0,1.99
Freeport,US,1627415801.0,40.6576,-73.5832,87.73,94.1,48.0,3.0,3.0
Umeå,SE,1627415591.0,63.8284,20.2597,71.53,71.53,49.0,0.0,3.44
Cabo San Lucas,MX,1627415852.0,22.8909,-109.9124,93.92,99.81,67.0,58.0,11.7
Jamestown,US,1627415852.0,42.097,-79.2353,79.02,80.1,71.0,92.0,5.99
Kapaa,US,1627415852.0,22.0752,-159.319,80.31,82.38,80.0,100.0,3.0
Lavrentiya,RU,1627415853.0,65.5833,-171.0,44.28,44.28,99.0,100.0,9.37
Radchenko,RU,1627415853.0,56.6803,36.3718,65.26,65.26,62.0,99.0,3.22
Rikitea,PF,1627415854.0,-23.1203,-134.9692,74.3,74.3,77.0,100.0,15.82
Turukhansk,RU,1627415600.0,65.8167,87.9833,53.6,53.6,94.0,100.0,8.63
Port Hardy,CA,1627415552.0,50.6996,-127.4199,59.18,59.18,82.0,20.0,5.75
Griffith,US,1627415855.0,41.5284,-87.4237,84.92,89.1,61.0,1.0,1.01
Talnakh,RU,1627415360.0,69.4865,88.3972,66.07,66.07,86.0,79.0,6.98
Lagoa,PT,1627415856.0,39.05,-27.9833,71.4,71.4,85.0,100.0,10.54
Hermanus,ZA,1627415856.0,-34.4187,19.2345,55.8,55.8,79.0,100.0,19.13
Morros,BR,1627415856.0,-9.4467,-46.3003,90.93,90.93,22.0,5.0,2.24
Province of Vibo Valentia,IT,1627415857.0,38.6996,16.1274,74.26,79.65,61.0,0.0,1.48
Husavik,IS,1627415857.0,66.0449,-17.3389,49.91,49.91,99.0,100.0,10.83
Sioux Lookout,CA,1627415858.0,50.1001,-91.917,77.07,79.18,47.0,75.0,2.3
Chokurdakh,RU,1627415858.0,70.6333,147.9167,35.73,35.73,82.0,100.0,12.73
Bethel,US,1627415859.0,41.3712,-73.414,87.28,91.08,56.0,32.0,1.01
Thompson,CA,1627415791.0,55.7435,-97.8558,77.16,77.16,50.0,75.0,5.75
Berlevåg,NO,1627415859.0,70.8578,29.0864,46.2,46.2,91.0,75.0,7.02
Stepnyak,KZ,1627415860.0,52.8339,70.7803,56.05,56.05,61.0,81.0,9.33
Luwuk,ID,1627415860.0,-0.9516,122.7875,75.6,75.6,82.0,63.0,5.84
Kedrovyy,RU,1627415860.0,56.1667,91.8167,55.81,55.81,99.0,81.0,3.18
Usol'ye-Sibirskoye,RU,1627415861.0,52.7519,103.6453,57.6,57.6,78.0,0.0,2.17
Udachny,RU,1627415862.0,66.4167,112.4,71.89,71.89,56.0,58.0,1.03
George Town,MY,1627415617.0,5.4112,100.3354,82.69,82.89,84.0,20.0,4.61
Wagar,SD,1627415862.0,16.1525,36.2032,81.07,81.07,71.0,71.0,13.82
Amparafaravola,MG,1627415863.0,-17.5833,48.2167,56.59,56.59,90.0,81.0,4.12
Caborca,MX,1627415863.0,30.5838,-111.101,92.5,92.5,33.0,13.0,5.77
Faanui,PF,1627415864.0,-16.4833,-151.75,78.06,78.06,74.0,38.0,8.23
Portland,US,1627415301.0,45.5234,-122.6762,80.6,87.46,49.0,75.0,1.99
Luganville,VU,1627415864.0,-15.5333,167.1667,76.59,76.59,85.0,99.0,12.48
Ipameri,BR,1627415865.0,-17.7219,-48.1597,82.58,82.58,23.0,3.0,6.64
Kieta,PG,1627415865.0,-6.2167,155.6333,78.46,78.46,83.0,100.0,1.9
Deloraine,AU,1627415865.0,-41.5333,146.6667,47.1,54.23,94.0,100.0,11.99
Leningradskiy,RU,1627415866.0,69.3833,178.4167,34.77,34.77,97.0,100.0,6.73
Cape Town,ZA,1627415652.0,-33.9258,18.4232,55.62,56.08,86.0,90.0,4.0
Naze,JP,1627415701.0,28.3667,129.4833,76.59,76.59,86.0,100.0,10.33
Pevek,RU,1627415867.0,69.7008,170.3133,33.91,33.91,93.0,100.0,12.5
Butaritari,KI,1627415867.0,3.0707,172.7902,81.57,81.57,71.0,96.0,6.6
Sheffield,GB,1627415659.0,53.383,-1.4659,63.63,65.16,83.0,99.0,4.25
Hambantota,LK,1627415868.0,6.1241,81.1185,80.56,80.56,78.0,100.0,18.05
Bredasdorp,ZA,1627415868.0,-34.5322,20.0403,56.52,56.52,72.0,100.0,17.27
Yangi Marg`ilon,UZ,1627415869.0,40.4272,71.7189,84.92,84.92,34.0,40.0,9.22
Buckeye,US,1627415869.0,33.3703,-112.5838,101.89,104.85,30.0,10.0,1.01
Takoradze,GH,1627415870.0,4.8845,-1.7554,75.99,75.99,82.0,84.0,9.48
Hilo,US,1627415587.0,19.7297,-155.09,76.91,77.11,85.0,90.0,9.22
Ak-Dovurak,RU,1627415870.0,51.1833,90.6,59.14,59.14,91.0,100.0,5.26
Nome,US,1627415604.0,64.5011,-165.4064,50.07,50.07,93.0,90.0,9.22
Bengkulu,ID,1627415871.0,-3.8004,102.2655,73.18,73.18,75.0,17.0,4.79
Vanimo,PG,1627415871.0,-2.6741,141.3028,77.04,77.04,93.0,99.0,5.55
Cidreira,BR,1627415872.0,-30.1811,-50.2056,51.94,51.94,59.0,88.0,19.73
Chui,UY,1627415872.0,-33.6971,-53.4616,46.65,46.65,59.0,19.0,16.84
Pacific Grove,US,1627415690.0,36.6177,-121.9166,65.89,95.61,79.0,31.0,7.0
Lima,PE,1627415873.0,-12.0432,-77.0282,64.65,64.65,77.0,90.0,10.36
Periyanegamam,IN,1627415873.0,10.7333,77.1,75.7,75.7,79.0,77.0,16.26
Bluff,NZ,1627415874.0,-46.6,168.3333,48.79,48.79,70.0,15.0,16.73
Deputatsky,RU,1627415874.0,69.3,139.9,38.35,38.35,79.0,87.0,4.43
Borgomanero,IT,1627415874.0,45.7024,8.4581,69.35,74.08,91.0,14.0,1.01
Bathsheba,BB,1627415875.0,13.2167,-59.5167,86.61,86.61,66.0,40.0,17.27
Arraial do Cabo,BR,1627415870.0,-22.9661,-42.0278,80.46,93.16,61.0,0.0,11.5
Velikooktyabr'skiy,RU,1627415876.0,57.4333,33.8159,63.57,63.57,77.0,94.0,4.18
Arona,ES,1627415876.0,28.0996,-16.681,68.04,71.82,66.0,20.0,5.01
Vila Velha,BR,1627415632.0,-20.3297,-40.2925,76.95,76.95,73.0,20.0,14.97
Kot Radha Kishan,PK,1627415877.0,31.1725,74.0997,84.31,84.31,84.0,100.0,9.17
Vila Franca do Campo,PT,1627415877.0,37.7167,-25.4333,70.21,70.21,76.0,20.0,9.89
Benton Harbor,US,1627415788.0,42.1167,-86.4542,84.61,87.49,55.0,45.0,4.0
Montepuez,MZ,1627415878.0,-13.1256,38.9997,69.46,69.46,42.0,92.0,8.16
Tongliao,CN,1627415878.0,43.6125,122.2653,73.26,73.26,80.0,100.0,3.44
Saskylakh,RU,1627415878.0,71.9167,114.0833,52.23,52.23,67.0,27.0,14.23
Jiwani,PK,1627415879.0,25.05,61.7417,83.53,83.53,88.0,100.0,9.86
Saint-Philippe,RE,1627415879.0,-21.3585,55.7679,65.97,69.35,83.0,48.0,11.9
Tiznit Province,MA,1627415880.0,29.5833,-9.5,71.46,71.46,70.0,0.0,4.25
Carnarvon,AU,1627415880.0,-24.8667,113.6333,59.07,59.07,54.0,90.0,4.61
Pāsighāt,IN,1627415881.0,28.0667,95.3333,79.27,79.27,87.0,100.0,2.98
Hithadhoo,MV,1627415881.0,-0.6,73.0833,80.92,80.92,78.0,95.0,8.12
Aklavik,CA,1627415585.0,68.2191,-135.0107,59.0,59.0,82.0,90.0,2.3
Sola,VU,1627415534.0,-13.8833,167.55,80.42,80.42,74.0,44.0,23.71
Iralaya,HN,1627415560.0,15.0,-83.2333,89.69,89.69,74.0,100.0,11.9
Buin,CL,1627415882.0,-33.7333,-70.75,61.66,64.72,25.0,0.0,1.72
Barrow,US,1627415883.0,71.2906,-156.7887,44.62,44.62,88.0,90.0,12.66
Hasaki,JP,1627415883.0,35.7333,140.8333,72.07,73.69,81.0,40.0,13.6
Pitimbu,BR,1627415883.0,-7.4706,-34.8086,82.99,82.99,82.0,3.0,10.78
Kastamonu Province,TR,1627415884.0,41.5,33.6667,58.8,58.8,82.0,0.0,4.27
Lieksa,FI,1627415884.0,63.3167,30.0167,64.54,64.54,71.0,51.0,3.38
Lakatoro,VU,1627415885.0,-16.0999,167.4164,76.46,76.46,82.0,82.0,14.72
Vao,NC,1627415885.0,-22.6667,167.4833,68.31,68.31,56.0,100.0,16.67
Mormugao,IN,1627415886.0,15.4,73.8,79.45,79.45,83.0,84.0,17.34
Nikolskoye,RU,1627415886.0,59.7035,30.7861,70.77,72.01,57.0,79.0,4.29
Meulaboh,ID,1627415887.0,4.1363,96.1285,76.8,76.8,90.0,56.0,3.87
Lompoc,US,1627415887.0,34.6391,-120.4579,79.52,90.01,68.0,11.0,3.0
Qadirpur Ran,PK,1627415888.0,30.2924,71.6712,89.49,89.49,47.0,90.0,14.97
Tomatlán,MX,1627415889.0,19.9333,-105.25,90.45,90.45,57.0,25.0,7.61
Sambava,MG,1627415889.0,-14.2667,50.1667,68.77,68.77,79.0,94.0,10.87
Whitehorse,CA,1627415889.0,60.7161,-135.0538,51.94,55.02,87.0,75.0,5.99
Severo-Kuril'sk,RU,1627415890.0,50.6789,156.125,57.79,57.79,96.0,100.0,7.65
Koson,UZ,1627415890.0,39.0375,65.585,86.32,86.32,15.0,0.0,20.8
Cherskiy,RU,1627415886.0,68.75,161.3,36.73,36.73,83.0,100.0,16.46
Tshikapa,CD,1627415891.0,-6.4167,20.8,70.77,70.77,24.0,65.0,2.48
Archidona,ES,1627415891.0,37.0965,-4.3887,69.75,85.82,51.0,0.0,4.83
Vestmanna,FO,1627415892.0,62.1564,-7.1664,50.92,50.92,100.0,90.0,9.22
Galle,LK,1627415892.0,6.0367,80.217,79.47,79.47,87.0,100.0,11.18
São João da Barra,BR,1627415892.0,-21.6403,-41.0511,80.69,80.69,81.0,0.0,17.22
Kondoros,HU,1627415893.0,46.7667,20.8,76.98,80.62,35.0,100.0,5.53
Port Blair,IN,1627415522.0,11.6667,92.75,81.84,81.84,84.0,93.0,18.57
Monrovia,LR,1627415893.0,6.3005,-10.7969,74.97,74.97,79.0,100.0,12.46
Yulara,AU,1627415894.0,-25.2406,130.9889,66.04,66.04,39.0,75.0,9.22
Ankara,TR,1627415616.0,39.9199,32.8543,73.42,73.42,44.0,0.0,8.86
São José da Coroa Grande,BR,1627415894.0,-8.8978,-35.1478,76.05,76.05,84.0,17.0,7.61
Kaitangata,NZ,1627415895.0,-46.2817,169.8464,48.92,48.92,62.0,59.0,4.45
Pierre,US,1627415875.0,44.3683,-100.351,105.28,110.98,32.0,9.0,3.0
Helena,US,1627415833.0,46.5927,-112.0361,89.6,97.32,27.0,87.0,3.0
Phan Thiet,VN,1627415896.0,10.9333,108.1,77.13,77.13,90.0,95.0,10.51
Yellowknife,CA,1627415896.0,62.456,-114.3525,57.25,59.32,58.0,75.0,1.99
Torbay,CA,1627415890.0,47.6666,-52.7314,68.09,70.57,95.0,90.0,18.41
Garissa,KE,1627415897.0,-0.4536,39.6401,74.16,74.16,64.0,68.0,22.26
Najrān,SA,1627415897.0,17.4924,44.1277,86.65,86.65,34.0,96.0,2.71
La Ronge,CA,1627415897.0,55.1001,-105.2842,68.25,71.82,60.0,75.0,4.61
Ghanzi,BW,1627415898.0,-21.5667,21.7833,49.64,49.64,44.0,0.0,7.18
Srandakan,ID,1627415898.0,-7.9386,110.2506,74.21,74.21,85.0,57.0,4.94
Ostrovskoye,RU,1627415899.0,57.8057,42.2433,59.02,59.02,86.0,83.0,3.11
Provideniya,RU,1627415899.0,64.3833,-173.3,48.31,48.31,100.0,90.0,13.42
Macedo de Cavaleiros,PT,1627415900.0,41.5382,-6.9611,68.31,68.31,38.0,0.0,9.95
Saint Paul Harbor,US,1627415892.0,57.79,-152.4072,55.27,55.27,81.0,100.0,2.84
Gigmoto,PH,1627415900.0,13.7796,124.39,81.61,81.61,84.0,100.0,14.72
Ormara,PK,1627415901.0,25.2088,64.6357,81.63,81.63,85.0,100.0,13.73
Aichach,DE,1627415901.0,48.4576,11.1341,68.92,72.45,79.0,0.0,3.44
Chimoio,MZ,1627415648.0,-19.1164,33.4833,58.95,58.95,93.0,75.0,2.71
Coffs Harbour,AU,1627415863.0,-30.3,153.1333,43.25,47.14,95.0,5.0,3.44
Tongchuanshi,CN,1627415902.0,35.0806,109.0897,75.02,75.02,55.0,100.0,1.9
Santa Rosalía,MX,1627415902.0,27.3167,-112.2833,88.36,88.36,47.0,1.0,7.14
Batagay-Alyta,RU,1627415903.0,67.8006,130.4114,45.41,45.41,72.0,23.0,9.82
Hervey Bay,AU,1627415555.0,-25.2986,152.8535,59.04,59.04,68.0,94.0,7.2
Ahipara,NZ,1627415903.0,-35.1667,173.1667,54.46,54.46,85.0,31.0,6.89
Puerto Carreño,CO,1627415904.0,6.189,-67.4859,85.77,85.77,66.0,89.0,2.55
Port-Cartier,CA,1627415904.0,50.0334,-66.8654,67.75,70.02,71.0,93.0,10.63
Kosh-Agach,RU,1627415905.0,50.0,88.6667,47.82,47.82,87.0,3.0,3.44
Puerto Ayora,EC,1627415905.0,-0.7393,-90.3518,76.96,76.96,69.0,18.0,10.47
Kargil,IN,1627415905.0,34.5667,76.1,64.45,64.45,48.0,60.0,1.21
New Norfolk,AU,1627415872.0,-42.7826,147.0587,53.19,55.58,67.0,88.0,3.0
Mana,GF,1627415906.0,5.6592,-53.7767,82.98,82.98,73.0,75.0,9.84
Saint Anthony,US,1627415608.0,45.0205,-93.218,91.31,95.34,55.0,57.0,4.0
Hurghada,EG,1627415906.0,27.2574,33.8129,91.44,91.44,33.0,0.0,8.05
Beringovskiy,RU,1627415907.0,63.05,179.3167,48.34,48.34,97.0,100.0,4.88
Chiang Mai,TH,1627415907.0,18.75,99.0,77.07,77.07,88.0,75.0,0.0
Bubaque,GW,1627415908.0,11.2833,-15.8333,80.2,80.2,81.0,97.0,8.14
Shugurovo,RU,1627415908.0,54.5083,52.1326,56.75,56.75,86.0,9.0,4.07
Ketchikan,US,1627415908.0,55.3422,-131.6461,60.89,60.89,78.0,81.0,3.31
Alugan,PH,1627415909.0,12.2188,125.4808,80.38,80.38,77.0,96.0,9.51
Nemuro,JP,1627415909.0,43.3236,145.575,63.14,63.14,99.0,98.0,7.11
Miles City,US,1627415881.0,46.4083,-105.8406,101.52,101.52,10.0,10.0,3.06
Nizhniy Odes,RU,1627415910.0,63.6445,54.856,44.6,44.6,93.0,100.0,11.12
‘Ewa Beach,US,1627415898.0,21.3156,-158.0072,82.62,83.08,64.0,17.0,17.85
Kushikino,JP,1627415911.0,31.7167,130.2667,74.16,74.16,85.0,0.0,3.04
Clarksville,US,1627415772.0,36.5298,-87.3595,91.26,93.18,54.0,18.0,1.01
Flinders,AU,1627415911.0,-34.5833,150.8552,56.48,59.38,61.0,93.0,3.0
Kimbe,PG,1627415912.0,-5.5502,150.1429,74.71,74.71,91.0,4.0,3.02
Atar,MR,1627415912.0,20.5169,-13.0499,100.67,100.67,13.0,75.0,6.6
Fortuna,US,1627415912.0,40.5982,-124.1573,56.25,79.2,100.0,90.0,0.0
Oussouye,SN,1627415913.0,12.485,-16.5469,86.18,86.18,76.0,100.0,7.99
Honnāli,IN,1627415913.0,14.25,75.6667,70.88,70.88,89.0,94.0,11.56
Moncagua,SV,1627415914.0,13.5333,-88.25,93.47,93.47,42.0,38.0,4.72
Kavaratti,IN,1627415914.0,10.5669,72.642,81.81,81.81,78.0,100.0,19.04
São Filipe,CV,1627415915.0,14.8961,-24.4956,74.88,74.88,78.0,16.0,5.82
Gander,CA,1627415838.0,48.9682,-54.5906,77.14,77.16,65.0,90.0,15.01
Inhambane,MZ,1627415915.0,-23.865,35.3833,58.98,58.98,94.0,20.0,3.44
Saint George,US,1627415824.0,37.1041,-113.5841,92.68,94.42,40.0,94.0,1.01
Maceió,BR,1627415916.0,-9.6658,-35.7353,78.24,78.24,83.0,75.0,9.22
Tuktoyaktuk,CA,1627415916.0,69.4541,-133.0374,50.0,50.0,76.0,90.0,6.91
‘Āhuimanu,US,1627415917.0,21.4447,-157.8378,82.35,82.85,66.0,22.0,15.01
Tasiilaq,GL,1627415894.0,65.6145,-37.6368,40.24,40.24,78.0,40.0,7.27
Cururupu,BR,1627415917.0,-1.8283,-44.8683,82.02,82.02,71.0,32.0,6.26
Coquimbo,CL,1627415877.0,-29.9533,-71.3436,58.73,58.73,67.0,0.0,13.8
Verkhoyansk,RU,1627415918.0,67.5447,133.385,48.22,48.22,65.0,3.0,6.08
Ribeira Grande,PT,1627415918.0,38.5167,-28.7,75.6,75.6,73.0,20.0,11.5
La Orilla,MX,1627415919.0,17.9833,-102.2333,86.54,86.54,67.0,25.0,8.25
Chicama,PE,1627415919.0,-7.8447,-79.1469,68.54,68.54,62.0,7.0,9.95
Bowen,AU,1627415920.0,-20.0167,148.2333,50.22,50.22,84.0,80.0,7.61
Zaozyornoye,UA,1627415920.0,45.1582,33.2787,76.95,76.95,58.0,0.0,5.7
Ilulissat,GL,1627415882.0,69.2167,-51.1,51.84,51.84,72.0,100.0,5.41
Vestmannaeyjar,IS,1627415596.0,63.4427,-20.2734,55.53,55.53,82.0,38.0,12.17
Talcahuano,CL,1627415912.0,-36.7167,-73.1167,58.68,58.68,41.0,0.0,18.41
Varkaus,FI,1627415921.0,62.3153,27.873,72.14,72.3,54.0,99.0,4.63
Sisimiut,GL,1627415921.0,66.9395,-53.6735,55.22,55.22,60.0,100.0,20.89
Gusino,RU,1627415922.0,54.7244,31.368,63.28,63.28,93.0,98.0,7.7
Kavieng,PG,1627415922.0,-2.5744,150.7967,83.21,83.21,73.0,15.0,10.33
Sitka,US,1627415765.0,57.0531,-135.33,58.64,58.64,80.0,100.0,1.95
Covington,US,1627415923.0,39.0837,-84.5086,89.49,92.23,47.0,0.0,1.01
Beloha,MG,1627415923.0,-25.1667,45.05,61.03,61.03,76.0,0.0,11.52
Colombia,CU,1627415923.0,20.9881,-77.4297,85.89,85.89,72.0,71.0,10.36
Houma,US,1627415880.0,29.5958,-90.7195,93.31,95.0,54.0,3.0,4.0
Ahualulco del Sonido Trece,MX,1627415924.0,22.4,-101.1667,80.65,80.65,30.0,12.0,12.5
Shetpe,KZ,1627415925.0,44.1667,52.1167,78.84,78.84,20.0,70.0,20.78
Taunggyi,MM,1627415925.0,20.7833,97.0333,61.92,61.92,98.0,84.0,5.12
Palu,ID,1627415925.0,-0.8917,119.8707,74.53,74.53,93.0,73.0,2.64
Nelson Bay,AU,1627415926.0,-32.7167,152.15,47.86,52.0,95.0,36.0,7.96
Dhidhdhoo,MV,1627415766.0,6.8833,73.1,82.58,82.58,76.0,100.0,16.62
Beira,MZ,1627415928.0,-19.8436,34.8389,68.09,68.09,82.0,20.0,7.0
Royan,FR,1627415928.0,45.6285,-1.0281,67.15,68.04,82.0,81.0,9.08
Tiksi,RU,1627415889.0,71.6872,128.8694,37.29,37.29,93.0,52.0,5.91
Ponta do Sol,PT,1627415903.0,32.6667,-17.1,73.85,74.71,70.0,2.0,4.16
Mount Isa,AU,1627415929.0,-20.7333,139.5,47.97,47.97,66.0,100.0,4.61
Lumut,MY,1627415929.0,4.2323,100.6298,77.02,79.16,94.0,20.0,0.0
Mahébourg,MU,1627415908.0,-20.4081,57.7,66.49,67.24,100.0,75.0,11.5
Mattru,SL,1627415507.0,7.6244,-11.8332,73.51,73.51,96.0,97.0,3.38
Lingdong,CN,1627415930.0,46.5669,131.1453,75.02,75.02,63.0,50.0,2.82
Quatre Cocos,MU,1627415930.0,-20.2078,57.7625,67.08,67.08,86.0,92.0,16.08
Paran'ga,RU,1627415931.0,56.7039,49.4047,50.94,50.94,77.0,16.0,2.68
Mendi,PG,1627415931.0,-6.1761,143.6513,54.93,54.93,97.0,92.0,1.95
Numan,NG,1627415932.0,9.4667,12.0333,76.24,76.24,77.0,100.0,4.81
Sédhiou,SN,1627415932.0,12.7081,-15.5569,91.53,91.53,84.0,100.0,4.92
Los Llanos de Aridane,ES,1627415932.0,28.6585,-17.9182,68.13,69.55,91.0,75.0,18.41
Tromsø,NO,1627415351.0,69.6496,18.957,55.2,68.65,87.0,0.0,19.57
Hoquiam,US,1627415933.0,46.9809,-123.8893,64.72,85.05,1.0,0.0,9.89
Polyarnyye Zori,RU,1627415933.0,67.3661,32.4981,61.9,61.9,100.0,100.0,3.89
Saldanha,ZA,1627415934.0,-33.0117,17.9442,55.45,55.45,81.0,100.0,10.87
Kununurra,AU,1627415934.0,-15.7667,128.7333,64.38,64.38,88.0,9.0,0.0
Châteaudun,FR,1627415935.0,48.0833,1.3333,64.58,65.59,94.0,68.0,9.22
Camacha,PT,1627415935.0,33.0833,-16.3333,69.22,69.22,68.0,75.0,14.97
Carutapera,BR,1627415531.0,-1.195,-46.02,81.72,81.72,73.0,25.0,8.08
Langxiang,CN,1627415936.0,46.95,128.8833,69.15,69.15,91.0,7.0,2.51
Florence,IT,1627415715.0,43.7667,11.25,79.25,81.7,58.0,5.0,2.64
Labuhan,ID,1627415936.0,-6.8844,112.2051,73.4,73.4,87.0,10.0,5.99
Shubarshi,KZ,1627415937.0,48.5872,57.1869,72.0,72.0,35.0,38.0,16.8
Humaitá,BR,1627415937.0,-7.5061,-63.0208,99.09,99.09,24.0,5.0,2.64
Okhotsk,RU,1627415901.0,59.3833,143.3,60.93,60.93,85.0,43.0,4.12
Dunedin,NZ,1627415937.0,-45.8742,170.5036,50.81,50.81,55.0,8.0,7.0
Uruaçu,BR,1627415938.0,-14.5247,-49.1408,87.33,87.33,20.0,55.0,3.02
Muros,ES,1627415357.0,42.7762,-9.0603,69.62,70.68,70.0,1.0,11.88
Avera,US,1627415938.0,33.194,-82.5271,90.72,93.25,56.0,97.0,3.74
Nouadhibou,MR,1627415352.0,20.931,-17.0347,73.38,73.38,73.0,6.0,20.71
Belaya Gora,RU,1627415525.0,68.5333,146.4167,41.77,41.77,77.0,100.0,11.56
Kumul,CN,1627415939.0,42.8,93.45,87.17,87.17,18.0,0.0,7.31
Aktash,RU,1627415940.0,50.3,87.7333,43.23,43.23,94.0,66.0,1.39
Hirara,JP,1627415940.0,24.8,125.2833,82.08,82.08,88.0,100.0,5.35
Chara,RU,1627415941.0,56.9064,118.2631,59.52,59.52,81.0,98.0,1.52
Te Anau,NZ,1627415941.0,-45.4167,167.7167,42.3,42.3,91.0,15.0,2.66
Beijing,CN,1627415905.0,39.9075,116.3972,76.77,76.77,87.0,100.0,2.35
Cilaos,RE,1627415942.0,-21.1336,55.4719,51.67,55.9,81.0,68.0,4.43
Saint-Joseph,RE,1627415942.0,-21.3667,55.6167,64.98,68.36,80.0,48.0,12.41
Wonthaggi,AU,1627415943.0,-38.6044,145.5913,59.25,61.2,63.0,13.0,26.98
Gushikawa,JP,1627415943.0,26.3544,127.8686,79.63,81.63,74.0,97.0,11.52
Boguchany,RU,1627415944.0,58.3814,97.4531,65.43,65.43,92.0,100.0,4.32
Brewster,US,1627415944.0,41.3973,-73.6171,87.96,91.2,53.0,29.0,1.01
Mombetsu,JP,1627415944.0,44.3525,143.3525,70.23,70.23,95.0,44.0,2.75
Baijiantan,CN,1627415589.0,45.6333,85.1833,83.46,83.46,27.0,35.0,19.66
Sangar,RU,1627415946.0,63.9242,127.4739,54.01,54.01,74.0,35.0,1.63
Kaberamaido,UG,1627415946.0,1.7389,33.1594,72.14,72.14,62.0,100.0,4.63
Tres Arroyos,AR,1627415946.0,-38.3739,-60.2798,42.21,42.21,92.0,100.0,22.1
Concepción,CL,1627415889.0,-36.827,-73.0498,58.8,58.8,41.0,0.0,18.41
Swan River,CA,1627415947.0,52.1058,-101.2676,82.29,82.29,34.0,2.0,3.44
Faya,SA,1627415544.0,18.3851,42.4509,64.92,68.11,76.0,32.0,4.61
Bouar,CF,1627415948.0,5.934,15.596,65.41,65.41,96.0,100.0,2.13
Loreto,MX,1627415948.0,22.2667,-101.9667,79.72,79.72,28.0,3.0,13.58
Moguer,ES,1627415948.0,37.2756,-6.8385,80.71,82.62,42.0,0.0,8.01
Gemena,CD,1627415949.0,3.25,19.7667,74.21,74.21,65.0,77.0,1.36
Buraidah,SA,1627415949.0,26.326,43.975,102.65,102.65,14.0,0.0,11.1
Koumac,NC,1627415950.0,-20.5667,164.2833,64.17,64.17,74.0,0.0,4.92
Teya,RU,1627415950.0,60.3778,92.6267,59.49,59.49,97.0,100.0,5.08
Hazleton,US,1627415821.0,40.9584,-75.9746,84.6,88.47,39.0,1.0,0.0
Henties Bay,NA,1627415594.0,-22.116,14.2845,59.86,59.86,76.0,0.0,10.29
Auki,SB,1627415911.0,-8.7676,160.7034,76.75,76.75,89.0,55.0,4.54
West Wendover,US,1627415951.0,40.7391,-114.0733,89.87,89.87,27.0,7.0,4.9
Bandar-e Anzali,IR,1627415951.0,37.4727,49.4622,81.19,81.19,70.0,4.0,10.51
Bonthe,SL,1627415952.0,7.5264,-12.505,77.2,77.2,85.0,99.0,11.21
Sorong,ID,1627415952.0,-0.8833,131.25,78.64,78.64,88.0,89.0,6.33
Kifrī,IQ,1627415953.0,34.6959,44.9661,103.62,103.62,13.0,0.0,20.6
Nantucket,US,1627415910.0,41.2835,-70.0995,81.14,86.34,78.0,4.0,11.79
Krosno Odrzańskie,PL,1627415947.0,52.0549,15.0988,70.61,71.74,66.0,100.0,1.52
Kruisfontein,ZA,1627415905.0,-34.0033,24.7314,58.89,58.89,93.0,9.0,6.87
Nanortalik,GL,1627415908.0,60.1432,-45.2371,47.7,47.7,74.0,55.0,3.38
Thinadhoo,MV,1627415954.0,0.5333,72.9333,82.09,82.09,74.0,100.0,8.14
Kathmandu,NP,1627415779.0,27.7167,85.3167,70.02,70.02,100.0,75.0,4.61
Sydney,AU,1627415746.0,-33.8679,151.2073,55.31,60.8,60.0,0.0,5.01
Hargeisa,SO,1627415955.0,9.56,44.065,70.3,70.3,54.0,97.0,23.06
Vila do Maio,CV,1627415955.0,15.1333,-23.2167,79.59,79.59,79.0,49.0,12.95
Paragominas,BR,1627415955.0,-2.9667,-47.4833,91.94,91.94,39.0,53.0,2.84
Chifeng,CN,1627415956.0,42.2683,118.9636,69.04,69.04,86.0,100.0,1.72
Verkhnevilyuysk,RU,1627415956.0,63.4453,120.3167,58.6,58.6,71.0,23.0,3.15
Buluang,PH,1627415957.0,13.3068,123.3425,80.96,80.96,83.0,100.0,13.53
Fālākāta,IN,1627415957.0,26.5208,89.2055,80.01,80.01,91.0,100.0,6.6
Amapá,BR,1627415916.0,1.0,-52.0,81.48,81.48,89.0,13.0,0.65
Almeirim,BR,1627415958.0,-1.5233,-52.5817,88.99,88.99,52.0,54.0,2.57
Pizarro,CO,1627415958.0,4.9533,-77.366,79.45,79.45,81.0,100.0,3.87
Koutiala,ML,1627415959.0,12.3917,-5.4642,80.42,80.42,71.0,63.0,8.25
Dingle,PH,1627415893.0,10.9995,122.6711,78.87,78.87,82.0,100.0,11.59
Koshurnikovo,RU,1627415959.0,54.1667,93.3,56.91,56.91,98.0,100.0,3.89
Makakilo City,US,1627415960.0,21.3469,-158.0858,81.46,81.68,63.0,31.0,14.74
Sobolevo,RU,1627415960.0,54.4299,31.8996,63.46,63.46,92.0,100.0,7.63
Zharkent,KZ,1627415961.0,44.1628,80.0,75.87,75.87,39.0,0.0,1.23
Alyangula,AU,1627415961.0,-13.8483,136.4192,62.47,62.47,100.0,75.0,0.0
Balakhta,RU,1627415962.0,55.38,91.6,53.06,53.06,95.0,91.0,5.32
Uyemskiy,RU,1627415962.0,64.4743,40.8524,46.45,46.45,100.0,0.0,4.47
Marsh Harbour,BS,1627415962.0,26.5412,-77.0636,85.55,85.55,68.0,43.0,8.03
Chittarkonda,IN,1627415963.0,18.1167,82.0833,75.29,75.29,87.0,98.0,5.08
Innisfail,AU,1627415963.0,-17.5333,146.0333,62.73,62.73,85.0,16.0,4.36
Pimentel,PE,1627415964.0,-6.8367,-79.9342,71.01,73.69,79.0,0.0,5.99
Noumea,NC,1627415964.0,-22.2763,166.4572,66.99,66.99,99.0,48.0,10.87
Kanniyākumāri,IN,1627415964.0,8.0833,77.5667,79.68,79.68,83.0,100.0,18.5
El Progreso,HN,1627415965.0,15.4,-87.8,92.95,92.95,43.0,40.0,9.22
Yenagoa,NG,1627415965.0,4.9247,6.2642,75.02,75.02,82.0,97.0,5.12
Opuwo,NA,1627415966.0,-18.0607,13.84,61.09,61.09,29.0,0.0,8.3
Kalmunai,LK,1627415966.0,7.4167,81.8167,81.99,81.99,69.0,100.0,6.02
Avarua,CK,1627415967.0,-21.2078,-159.775,77.05,77.05,69.0,20.0,4.61
Muravlenko,RU,1627415967.0,63.7898,74.523,55.78,55.78,70.0,100.0,7.18
Clyde River,CA,1627415949.0,70.4692,-68.5914,57.43,57.43,62.0,75.0,4.61
Iqaluit,CA,1627415894.0,63.7506,-68.5145,54.7,55.13,54.0,75.0,5.99
Tommot,RU,1627415968.0,58.9564,126.2925,61.81,61.81,96.0,5.0,0.94
Olutanga,PH,1627415968.0,7.3106,122.8464,84.07,84.07,77.0,100.0,11.03
Ibb,YE,1627415969.0,13.9667,44.1833,67.26,67.26,80.0,100.0,3.11
Omagh,GB,1627415969.0,54.6,-7.3,58.19,58.19,96.0,100.0,2.71
Havøysund,NO,1627415969.0,70.9963,24.6622,47.28,47.28,91.0,17.0,8.75
Castlemaine,AU,1627415953.0,-37.0667,144.2167,50.83,51.28,92.0,90.0,16.13
Nur-Sultan,KZ,1627415970.0,51.1801,71.446,57.15,57.15,51.0,0.0,4.47
Palmer,US,1627415971.0,42.1584,-72.3287,86.5,90.48,48.0,26.0,1.01
Mehamn,NO,1627415971.0,71.0357,27.8492,47.39,47.39,90.0,45.0,7.09
Neuquén,AR,1627415762.0,-38.9516,-68.0591,55.29,55.29,26.0,0.0,8.05
Broken Hill,AU,1627415933.0,-31.95,141.4333,60.51,60.51,31.0,75.0,14.97
Dzhebariki-Khaya,RU,1627415972.0,62.2167,135.8,55.31,55.31,76.0,52.0,2.95
Longyearbyen,SJ,1627415822.0,78.2186,15.6401,44.44,44.44,87.0,75.0,16.11
Adrar,MR,1627415972.0,20.5022,-10.0711,95.16,95.16,18.0,100.0,13.51
Zhigansk,RU,1627415956.0,66.7697,123.3711,50.16,50.16,75.0,7.0,13.0
San Patricio,US,1627415973.0,28.017,-97.5169,92.16,96.89,40.0,79.0,9.78
Luanda,AO,1627415829.0,-8.8368,13.2343,73.4,73.4,83.0,40.0,9.22
Padang,ID,1627415908.0,-0.9492,100.3543,77.59,77.59,88.0,29.0,3.06
Areosa,PT,1627415974.0,41.7178,-8.8571,68.38,73.69,85.0,0.0,15.99
Hokitika,NZ,1627415974.0,-42.7167,170.9667,47.89,47.89,86.0,100.0,3.71
Kahului,US,1627415465.0,20.8947,-156.47,81.54,82.98,74.0,40.0,14.97
Geraldton,AU,1627415975.0,-28.7667,114.6,59.41,62.13,72.0,90.0,6.91
Esperance,AU,1627415870.0,-33.8667,121.9,46.24,46.24,81.0,50.0,16.51
Fairbanks,US,1627415975.0,64.8378,-147.7164,61.93,64.22,72.0,75.0,1.01
Hammerfest,NO,1627415976.0,70.6634,23.6821,46.85,46.85,100.0,90.0,10.36
Parral,MX,1627415976.0,26.9333,-105.6667,84.87,84.87,24.0,4.0,11.79
Narsaq,GL,1627415977.0,60.9167,-46.05,49.89,49.89,65.0,83.0,9.15
Sayyan,YE,1627415977.0,15.1718,44.3244,67.32,67.32,62.0,98.0,0.94
Alta Floresta,BR,1627415920.0,-9.8756,-56.0861,96.62,96.62,26.0,40.0,4.61
Zhangye,CN,1627415978.0,38.9342,100.4517,70.18,70.18,35.0,26.0,6.55
Roald,NO,1627415523.0,62.5833,6.1333,64.94,68.05,82.0,0.0,10.36
Vostok,RU,1627415978.0,46.4856,135.8833,70.2,70.2,85.0,98.0,2.93
Nioki,CD,1627415979.0,-2.7167,17.6833,76.06,76.06,26.0,58.0,2.21
Caravelas,BR,1627415931.0,-17.7125,-39.2481,73.89,73.89,78.0,6.0,8.79
Salgar,CO,1627415979.0,5.965,-75.9654,74.89,75.74,65.0,90.0,1.23
Tarauacá,BR,1627415980.0,-8.1614,-70.7656,88.54,88.54,49.0,94.0,3.09
Ostrovnoy,RU,1627415980.0,68.0531,39.5131,45.48,45.48,89.0,77.0,3.76
Poum,NC,1627415981.0,-20.2333,164.0167,68.92,68.92,67.0,3.0,9.86
Salamiyah,SY,1627415981.0,35.0113,37.0532,79.72,79.72,48.0,0.0,9.06
Gouyave,GD,1627415982.0,12.1646,-61.7296,84.97,84.97,70.0,20.0,13.8
Balakhninskiy,RU,1627415982.0,58.0106,114.2769,61.32,61.32,81.0,7.0,3.78
Ampanihy,MG,1627415983.0,-24.7,44.75,60.82,60.82,76.0,0.0,14.81
Assiut,EG,1627415983.0,27.181,31.1837,91.58,91.58,20.0,0.0,9.33
Balod,IN,1627415983.0,20.73,81.2047,77.11,77.11,83.0,100.0,10.47
Evensk,RU,1627415984.0,61.95,159.2333,55.45,55.45,63.0,92.0,8.57
Pouembout,NC,1627415984.0,-21.1333,164.9,61.47,61.47,78.0,1.0,5.21
Fomboni,KM,1627415985.0,-12.28,43.7425,76.41,76.41,69.0,77.0,13.35
Mossamedes,AO,1627415985.0,-15.1961,12.1522,65.8,65.8,83.0,69.0,2.24
Utena,LT,1627415986.0,55.5,25.6,66.76,66.76,96.0,92.0,7.47
Hue,VN,1627415986.0,16.4667,107.6,84.31,84.31,70.0,20.0,3.44
Mazagão,BR,1627415986.0,-0.115,-51.2894,86.05,86.05,54.0,34.0,4.25
Ruska Poliana,UA,1627415987.0,49.417,31.9201,73.04,73.04,48.0,27.0,7.74
Portobelo,PA,1627415980.0,9.55,-79.65,82.81,82.81,83.0,94.0,2.82
Shellbrook,CA,1627415987.0,53.2168,-106.4011,79.83,79.83,31.0,1.0,7.85
Conceição do Araguaia,BR,1627415988.0,-8.2578,-49.2647,96.51,96.51,17.0,0.0,5.73
Anse-Bertrand,GP,1627415988.0,16.4721,-61.5078,85.82,85.82,73.0,1.0,14.88
Palana,RU,1627415989.0,59.1167,159.9667,45.86,45.86,98.0,100.0,9.91
Tanabe,JP,1627415989.0,33.7333,135.3667,75.92,75.92,81.0,68.0,1.01
Gravdal,NO,1627415571.0,68.1214,13.5031,58.89,58.89,88.0,0.0,4.61
Laas,IT,1627415924.0,46.6166,10.7002,61.88,63.01,94.0,93.0,4.5
Balkhash,KZ,1627415966.0,46.844,74.9804,70.68,70.68,36.0,0.0,16.93
Saint-Augustin,CA,1627415990.0,51.226,-58.6502,64.62,64.62,89.0,97.0,9.22
Khandyga,RU,1627415991.0,62.6667,135.6,55.36,55.36,73.0,22.0,4.65
Severnyy,RU,1627415991.0,50.677,36.5532,77.04,77.04,44.0,0.0,2.24
Dauphin,CA,1627415991.0,51.1494,-100.0502,84.34,84.34,42.0,1.0,8.05
Douglas,US,1627415992.0,41.3,-96.167,94.33,99.61,54.0,1.0,1.99
Patnos,TR,1627415993.0,39.2336,42.8634,70.75,70.75,28.0,41.0,5.21
Ancud,CL,1627415918.0,-41.8697,-73.8203,49.53,49.53,73.0,97.0,2.51
La Libertad,EC,1627415502.0,-2.2333,-80.9,76.66,76.66,78.0,0.0,9.22
Lukovetskiy,RU,1627415993.0,64.2956,41.9211,46.38,46.38,87.0,42.0,3.31
Guiyang,CN,1627415994.0,26.5833,106.7167,70.29,70.29,88.0,20.0,4.47
Lorengau,PG,1627415994.0,-2.0226,147.2712,81.82,81.82,75.0,0.0,5.21
San Miguel de Cozumel,MX,1627415994.0,20.5083,-86.9458,88.48,89.94,72.0,58.0,5.01
Katsuura,JP,1627415995.0,35.1333,140.3,77.16,77.18,87.0,99.0,10.33
Iquitos,PE,1627415995.0,-3.7481,-73.2472,87.84,87.84,66.0,75.0,4.61
Belyy Yar,RU,1627415996.0,53.6039,91.3903,62.49,62.49,77.0,0.0,11.18
Azogues,EC,1627415932.0,-2.7333,-78.8333,69.75,69.75,72.0,80.0,6.73
Homer,US,1627415895.0,59.6425,-151.5483,60.46,70.09,74.0,100.0,1.99
Date,JP,1627415997.0,42.4681,140.8681,70.21,70.21,91.0,79.0,7.11
Rawson,AR,1627415997.0,-43.3002,-65.1023,45.36,45.36,57.0,82.0,23.49
Alihe,CN,1627415997.0,50.5667,123.7167,61.29,61.29,98.0,100.0,2.68
Kozan,TR,1627415998.0,37.4552,35.8157,85.1,85.1,40.0,0.0,8.59
Qaqortoq,GL,1627415585.0,60.7167,-46.0333,47.44,47.44,70.0,66.0,3.36
Xuzhou,CN,1627415998.0,34.1805,117.1571,75.38,75.38,97.0,100.0,20.96
Maniitsoq,GL,1627415547.0,65.4167,-52.9,47.95,47.95,82.0,100.0,15.82
Bambanglipuro,ID,1627415999.0,-7.95,110.2833,73.74,73.74,86.0,50.0,4.81
Robertsport,LR,1627416000.0,6.7533,-11.3686,77.68,77.68,81.0,97.0,15.64
Rognan,NO,1627416000.0,67.0953,15.3878,70.41,70.75,75.0,13.0,3.27
Usinsk,RU,1627416000.0,65.9939,57.5281,45.79,45.79,87.0,100.0,20.74
Kutum,SD,1627416004.0,14.2,24.6667,73.13,73.13,73.0,81.0,9.57
Nālūt,LY,1627416005.0,30.3333,10.85,88.66,88.66,14.0,0.0,12.06
Russellville,US,1627416006.0,35.2784,-93.1338,95.32,97.07,57.0,13.0,4.0
Sakaiminato,JP,1627416007.0,35.55,133.2333,77.83,77.83,76.0,100.0,3.33
Guarujá,BR,1627415966.0,-23.9931,-46.2564,82.85,91.0,42.0,0.0,6.91
North Branch,US,1627416009.0,45.5113,-92.9802,90.54,95.49,64.0,53.0,4.94
Saint-Pierre,RE,1627415946.0,-21.3393,55.4781,66.09,69.44,79.0,75.0,10.36
Aswān,EG,1627416009.0,24.0934,32.907,93.22,93.22,20.0,100.0,15.48
Nsanje,MW,1627416010.0,-16.92,35.262,64.72,64.72,79.0,100.0,3.18
Maragogi,BR,1627415969.0,-9.0122,-35.2225,75.63,75.63,85.0,23.0,7.29
Yerbogachën,RU,1627415973.0,61.2767,108.0108,63.14,63.14,65.0,6.0,5.37
South Venice,US,1627416011.0,27.0531,-82.4243,86.04,91.0,76.0,1.0,4.61
Masallātah,LY,1627416012.0,32.6167,14.0,74.46,74.46,73.0,0.0,12.86
Salalah,OM,1627416013.0,17.0151,54.0924,78.33,78.33,86.0,96.0,11.81
Raja,SS,1627416013.0,8.4596,25.678,69.73,69.73,96.0,88.0,4.0
Rabo de Peixe,PT,1627415984.0,37.8,-25.5833,69.31,69.31,94.0,75.0,13.8
Walvis Bay,NA,1627415963.0,-22.9575,14.5053,61.75,61.75,63.0,0.0,3.44
Iturama,BR,1627416014.0,-19.7281,-50.1956,88.5,88.5,21.0,6.0,5.35
Necochea,AR,1627416005.0,-38.5473,-58.7368,48.04,48.04,71.0,63.0,25.08
Norman Wells,CA,1627415975.0,65.282,-126.8329,64.44,64.44,63.0,75.0,5.75
Kuching,MY,1627416015.0,1.55,110.3333,73.62,73.62,94.0,40.0,4.61
Neiafu,TO,1627416016.0,-18.65,-173.9833,76.41,76.41,78.0,100.0,15.75
Rundu,NA,1627416017.0,-17.9333,19.7667,53.08,53.08,33.0,0.0,6.53
Gornopravdinsk,RU,1627416017.0,60.05,69.9,50.85,50.85,98.0,74.0,5.17
Tsumeb,NA,1627416018.0,-19.2333,17.7167,57.49,57.49,29.0,0.0,8.14
Anadyr,RU,1627416019.0,64.75,177.4833,50.0,50.0,99.0,100.0,4.0
Phang Nga,TH,1627416019.0,8.4509,98.5298,82.44,86.92,94.0,100.0,4.72
Hong Kong,HK,1627415722.0,22.2855,114.1577,86.25,87.96,89.0,97.0,1.01
Tual,ID,1627416020.0,-5.6667,132.75,80.49,80.49,83.0,71.0,15.61
Makkah al Mukarramah,SA,1627415900.0,21.4267,39.8261,89.33,89.33,43.0,56.0,1.9
Yumen,CN,1627416022.0,40.2833,97.2,76.3,76.3,25.0,17.0,10.33
Daru,PG,1627416023.0,-9.0763,143.2092,76.84,76.84,90.0,95.0,13.62
Shirdi,IN,1627416023.0,19.7667,74.4833,75.51,75.51,73.0,100.0,11.41
Maposeni,TZ,1627416024.0,-10.5833,35.4,54.88,54.88,52.0,0.0,4.36
Dongsheng,CN,1627416025.0,39.8161,109.9776,67.87,67.87,55.0,100.0,3.0
Shitanjing,CN,1627416025.0,39.2342,106.3439,66.04,66.04,65.0,7.0,7.07
Nagai,JP,1627416026.0,38.1036,140.035,72.57,72.57,97.0,100.0,3.4
Savannah Bight,HN,1627416027.0,16.45,-85.85,83.71,83.71,76.0,10.0,18.37
Udaipura,IN,1627416028.0,23.0833,78.5,74.71,74.71,93.0,100.0,11.72
Cartagena,CO,1627415793.0,10.3997,-75.5144,87.42,87.42,74.0,40.0,10.36
Castlecomer,IE,1627416028.0,52.8061,-7.2106,60.04,61.05,78.0,91.0,3.29
Omboué,GA,1627415519.0,-1.5746,9.2618,74.44,74.44,80.0,94.0,7.56
Normandin,CA,1627416029.0,48.8333,-72.5321,64.98,64.98,46.0,91.0,9.06
Benemérito de las Américas,MX,1627416029.0,16.5167,-90.6439,95.36,95.36,37.0,9.0,4.0
Broome,US,1627416030.0,42.2506,-75.833,76.89,85.98,100.0,90.0,12.66
Hirado,JP,1627416030.0,33.3597,129.5531,75.38,75.38,88.0,6.0,10.69
Ergani,TR,1627416031.0,38.2653,39.7621,86.72,86.72,36.0,0.0,14.61
Makat,KZ,1627416032.0,47.6469,53.3463,78.62,78.62,22.0,100.0,8.81
Jaciara,BR,1627416032.0,-15.9653,-54.9683,91.33,91.33,22.0,73.0,7.14
Pyapon,MM,1627416032.0,16.2833,95.6833,78.44,78.44,92.0,100.0,7.61
Klaksvík,FO,1627415905.0,62.2266,-6.589,52.72,52.72,96.0,92.0,12.57
Otradnoye,RU,1627416033.0,59.7775,30.8181,69.87,72.18,56.0,70.0,4.21
Khovd,MN,1627416034.0,48.0056,91.6419,65.7,65.7,50.0,0.0,3.09
Labuan,MY,1627415972.0,5.2767,115.2417,82.76,82.76,89.0,20.0,2.3
Māngrol,IN,1627415963.0,21.1167,70.1167,81.84,81.84,84.0,100.0,23.06
Rio Grande,BR,1627415941.0,-32.035,-52.0986,48.94,51.91,50.0,6.0,20.24
Novaya Tavolzhanka,RU,1627416035.0,50.3512,36.8298,78.22,78.22,45.0,5.0,3.98
Balkanabat,TM,1627416036.0,39.5108,54.3671,90.84,90.84,32.0,4.0,2.98
Acapulco de Juárez,MX,1627416036.0,16.8634,-99.8901,87.22,87.22,63.0,41.0,7.0
San Francisco del Mar Viejo,MX,1627416036.0,16.2333,-94.65,87.44,87.44,63.0,90.0,9.26
Puerto Escondido,MX,1627416037.0,15.85,-97.0667,85.39,85.39,71.0,100.0,4.14
Marsaxlokk,MT,1627416038.0,35.8419,14.5431,79.41,83.08,69.0,0.0,1.14
Olafsvik,IS,1627416038.0,64.8945,-23.7142,51.39,51.39,85.0,99.0,16.31
Kushmurun,KZ,1627416038.0,52.4503,64.6311,62.24,62.24,51.0,25.0,6.71
Bambous Virieux,MU,1627416039.0,-20.3428,57.7575,67.21,67.21,85.0,100.0,17.18
Yangambi,CD,1627415951.0,0.8102,24.4336,74.17,74.17,71.0,33.0,2.89
Bilma,NE,1627415981.0,18.6853,12.9164,87.85,87.85,46.0,96.0,16.24
Bira,RU,1627416040.0,49.0,132.4667,70.74,70.74,95.0,7.0,1.41
Souillac,MU,1627415879.0,-20.5167,57.5167,66.58,67.35,100.0,75.0,11.5
Óbidos,BR,1627416041.0,-1.9175,-55.5181,93.47,93.47,33.0,0.0,5.5
Ixtapa,MX,1627415923.0,20.7,-105.2,90.23,90.23,69.0,18.0,5.01
Juneau,US,1627416009.0,58.3019,-134.4197,62.83,62.83,85.0,93.0,1.99
Shemonaīkha,KZ,1627416042.0,50.6328,81.9056,53.02,53.02,75.0,0.0,5.48
Bonavista,CA,1627415960.0,48.6499,-53.1147,69.8,69.8,94.0,100.0,13.49
Banjar,ID,1627416043.0,-8.19,114.9675,76.86,76.86,77.0,41.0,5.14
Coro,VE,1627416044.0,11.4045,-69.6734,87.24,87.24,64.0,97.0,21.94
Lahat,ID,1627416015.0,-3.8,103.5333,68.45,68.45,79.0,25.0,2.86
Aksu,CN,1627416044.0,41.1231,80.2644,85.93,85.93,31.0,63.0,9.66
Nampula,MZ,1627416045.0,-15.1165,39.2666,60.26,60.26,70.0,52.0,5.26
Casper,US,1627415824.0,42.8666,-106.3131,97.32,97.72,13.0,15.0,3.0
Menongue,AO,1627416046.0,-14.6585,17.691,53.8,53.8,36.0,0.0,5.57
Joshīmath,IN,1627416046.0,30.5667,79.5667,73.94,73.94,96.0,99.0,1.92
Härnösand,SE,1627416047.0,62.6323,17.9379,68.0,73.42,82.0,13.0,8.25
Grand Island,US,1627415974.0,40.925,-98.342,91.18,91.18,23.0,35.0,11.7
Harper,LR,1627416048.0,4.375,-7.7169,76.53,76.53,78.0,100.0,10.04
Cayenne,GF,1627416048.0,4.9333,-52.3333,85.08,85.08,77.0,75.0,3.0
Bam,IR,1627416049.0,29.106,58.357,92.14,92.14,16.0,100.0,16.53
Tsimmerbude,RU,1627416049.0,54.675,20.1347,68.05,68.05,86.0,61.0,4.56
San Quintín,MX,1627416050.0,30.4833,-115.95,76.37,76.37,66.0,1.0,12.08
Rumuruti,KE,1627416050.0,0.267,36.5389,60.49,60.49,82.0,100.0,4.7
La Palma,US,1627416051.0,33.8464,-118.0467,80.83,103.8,63.0,20.0,4.0
Kilindoni,TZ,1627416051.0,-7.9139,39.6668,75.83,75.83,75.0,6.0,19.66
Mastic Beach,US,1627416052.0,40.7668,-72.8521,85.87,90.99,49.0,14.0,12.75
Marsala,IT,1627416052.0,37.7966,12.4352,80.11,82.94,69.0,1.0,7.76
Taltal,CL,1627415532.0,-25.4,-70.4833,60.08,60.08,69.0,9.0,5.57
Río Gallegos,AR,1627415578.0,-51.6226,-69.2181,42.85,42.85,81.0,90.0,10.36
Rovaniemi,FI,1627416053.0,66.5,25.7167,69.21,69.21,60.0,0.0,6.91
Praia,CV,1627415880.0,14.9215,-23.5087,79.34,79.34,69.0,75.0,5.75
Manjacaze,MZ,1627416054.0,-24.7117,33.8828,58.12,58.12,78.0,0.0,4.41
Crossfield,CA,1627416054.0,51.4334,-114.0353,72.3,78.53,51.0,8.0,5.01
Cranbrook,CA,1627416055.0,49.4999,-115.7688,90.77,90.77,13.0,100.0,10.83
Baiyin,CN,1627416055.0,36.5583,104.2081,64.45,64.45,61.0,3.0,8.28
Antigonish,CA,1627415877.0,45.6169,-61.9986,72.97,78.15,76.0,100.0,7.7
Gairo,IT,1627416056.0,39.8497,9.5047,72.18,72.18,68.0,7.0,2.19
Mae Hong Son,TH,1627416057.0,19.3003,97.9685,73.35,73.35,99.0,100.0,1.54
Road Town,VG,1627415876.0,18.4167,-64.6167,85.89,86.04,74.0,40.0,10.36
Itoman,JP,1627416058.0,26.1247,127.6694,82.42,82.42,89.0,75.0,10.36
Pisco,PE,1627415694.0,-13.7,-76.2167,68.05,69.03,73.0,13.0,8.05
Boysun,UZ,1627416059.0,38.2061,67.1986,79.41,79.41,27.0,0.0,3.58
Pravia,ES,1627416059.0,43.4906,-6.1508,64.63,65.23,82.0,40.0,6.91
Whangamata,NZ,1627416059.0,-37.2,175.8667,50.95,51.03,84.0,9.0,9.04
Nizwá,OM,1627416060.0,22.9333,57.5333,98.49,98.49,30.0,100.0,5.37
Haines Junction,CA,1627416061.0,60.7522,-137.5108,59.59,59.59,62.0,99.0,4.97
Birin,NP,1627416061.0,26.8865,88.0718,65.7,65.7,92.0,100.0,3.51
Wollongong,AU,1627416062.0,-34.4333,150.8833,56.97,59.25,64.0,98.0,12.41
Egvekinot,RU,1627416063.0,66.3167,-179.1667,40.93,40.93,91.0,100.0,9.08
Guerrero Negro,MX,1627416063.0,27.9769,-114.0611,81.61,81.61,50.0,0.0,12.86
Richards Bay,ZA,1627416064.0,-28.783,32.0377,64.6,64.6,62.0,6.0,17.09
Sarkand,KZ,1627416064.0,45.41,79.9186,61.56,61.56,60.0,0.0,3.49
Kirakira,SB,1627415510.0,-10.4544,161.9205,78.73,78.73,84.0,34.0,9.19
Coruripe,BR,1627416065.0,-10.1256,-36.1756,74.93,74.93,85.0,51.0,7.4
Bandundu Province,CD,1627416065.0,-3.3167,17.3667,76.66,76.66,25.0,29.0,1.99
Baykit,RU,1627416044.0,61.67,96.37,64.08,64.08,89.0,100.0,3.13
North Bend,US,1627416066.0,43.4065,-124.2243,66.76,79.25,77.0,81.0,11.18
San Ramon,US,1627416067.0,37.7799,-121.978,81.73,95.11,35.0,10.0,1.99
Sumbe,AO,1627416068.0,-11.2061,13.8437,71.15,71.15,85.0,88.0,8.21
Bariloche,AR,1627415860.0,-41.1456,-71.3082,46.15,46.15,29.0,0.0,0.0
Port Moresby,PG,1627416069.0,-9.4431,147.1797,75.18,75.18,93.0,87.0,8.46
Westport,US,1627416069.0,41.1415,-73.3579,87.51,92.19,53.0,44.0,1.01
Nishihara,JP,1627416070.0,26.1842,127.7558,81.68,81.68,89.0,75.0,10.36
Havelock,US,1627416070.0,34.8791,-76.9013,85.19,87.98,82.0,85.0,4.0
Birjand,IR,1627415596.0,32.8663,59.2211,77.47,77.47,13.0,6.0,9.22
Rudnichnyy,RU,1627416071.0,59.617,52.4703,50.09,50.09,79.0,100.0,7.07
Epe,NG,1627416071.0,6.5841,3.9834,75.47,75.47,83.0,100.0,5.93
Mogadishu,SO,1627416071.0,2.0371,45.3438,76.68,76.68,83.0,100.0,20.71
Sompeta,IN,1627416072.0,18.9333,84.6,83.95,83.95,70.0,100.0,3.91
Taoudenni,ML,1627416072.0,22.6783,-3.9836,106.16,106.16,6.0,20.0,10.16
Utinga,BR,1627416073.0,-5.8172,-35.3954,80.69,80.69,68.0,23.0,12.39
Orašac,BA,1627416073.0,44.6289,16.0711,73.15,73.15,52.0,83.0,4.92
Punta de Piedra,VE,1627416074.0,7.6176,-71.4916,87.37,87.37,59.0,46.0,4.63
Naryan-Mar,RU,1627415974.0,67.6713,53.087,41.92,41.92,89.0,26.0,11.61
Gobabis,NA,1627416074.0,-22.45,18.9667,48.87,48.87,36.0,0.0,12.33
Gorodishche,RU,1627416075.0,48.8045,44.4744,70.68,70.68,43.0,0.0,6.71
Copiapó,CL,1627415886.0,-27.3667,-70.3333,56.89,56.89,30.0,0.0,6.13
Chapais,CA,1627416075.0,49.7834,-74.8492,58.98,58.98,44.0,100.0,7.67
Xinyu,CN,1627416076.0,27.8043,114.9334,78.39,78.39,87.0,0.0,6.33
Waipawa,NZ,1627415954.0,-41.4122,175.5153,39.04,41.63,87.0,0.0,2.75
Lālmohan,BD,1627416076.0,22.3384,90.7419,80.47,80.47,91.0,100.0,18.14
Yar-Sale,RU,1627415964.0,66.8333,70.8333,48.31,48.31,63.0,99.0,11.48
Kaka,TM,1627416077.0,37.3482,59.6143,85.21,85.21,19.0,0.0,3.78
Dengzhou,CN,1627416077.0,37.8086,120.7508,76.03,76.03,83.0,100.0,5.95
Praia,CV,1627416041.0,14.9215,-23.5087,76.24,76.24,77.0,57.0,10.42
Ndioum,SN,1627416078.0,16.5129,-14.6471,93.58,93.58,31.0,98.0,20.45
Lüderitz,NA,1627416078.0,-26.6481,15.1594,57.06,57.06,75.0,0.0,10.6
Bintulu,MY,1627416079.0,3.1667,113.0333,79.57,79.57,87.0,92.0,5.82
Zonguldak,TR,1627416079.0,41.25,31.8333,63.34,63.34,85.0,0.0,3.91
Kashiwazaki,JP,1627416080.0,37.3667,138.55,71.94,71.94,92.0,43.0,6.38
Lincoln,US,1627415852.0,40.8,-96.667,94.91,98.02,24.0,82.0,8.52
Xining,CN,1627415992.0,36.6167,101.7667,51.01,51.01,75.0,35.0,2.77
Mahabalipuram,IN,1627416081.0,12.6264,80.1722,84.25,84.25,58.0,100.0,12.95
Lichinga,MZ,1627416081.0,-13.3128,35.2406,50.29,50.29,61.0,6.0,4.72
Port-Gentil,GA,1627416082.0,-0.7193,8.7815,76.19,76.19,80.0,85.0,11.83
San Fernando del Valle de Catamarca,AR,1627416053.0,-28.4696,-65.7852,60.21,60.78,37.0,25.0,3.0
Basco,PH,1627416082.0,20.4487,121.9702,83.21,83.21,85.0,100.0,24.18
Korla,CN,1627415549.0,41.7597,86.1469,87.19,87.19,18.0,4.0,10.74
Tocopilla,CL,1627415591.0,-22.092,-70.1979,64.53,64.53,64.0,19.0,10.07
Port Lincoln,AU,1627415869.0,-34.7333,135.8667,53.01,53.01,68.0,3.0,27.18
Santa Catarina de Tepehuanes,MX,1627416005.0,25.35,-105.7333,82.81,82.81,25.0,10.0,12.24
Trebinje,BA,1627416083.0,42.7119,18.3442,80.96,80.96,36.0,0.0,3.44
Kupang,ID,1627416084.0,-10.1667,123.5833,73.89,73.89,82.0,12.0,6.76
Alice Springs,AU,1627416084.0,-23.7,133.8833,62.15,62.15,45.0,75.0,5.75
Laguna,US,1627416085.0,38.421,-121.4238,89.49,96.66,23.0,1.0,1.99
Namatanai,PG,1627416080.0,-3.6667,152.4333,78.94,78.94,82.0,53.0,4.7
Arlit,NE,1627416085.0,18.7369,7.3853,83.97,83.97,52.0,100.0,9.46
Antón Lizardo,MX,1627416086.0,19.05,-95.9833,90.21,90.21,66.0,58.0,7.92
Kudahuvadhoo,MV,1627416086.0,2.6708,72.8944,80.65,80.65,79.0,100.0,8.75
Khāsh,IR,1627416087.0,28.2211,61.2158,84.97,84.97,19.0,100.0,2.08
Mergen,CN,1627416087.0,49.1833,125.2167,67.5,67.5,95.0,95.0,4.21
Pingzhuang,CN,1627416088.0,42.0372,119.2889,70.21,70.21,84.0,100.0,1.7
Ishinomaki,JP,1627416088.0,38.4167,141.3,72.14,72.14,95.0,100.0,16.35
Oxapampa,PE,1627416089.0,-10.5775,-75.4017,65.48,65.48,84.0,63.0,2.55
Genhe,CN,1627416089.0,50.7833,121.5167,56.17,56.17,99.0,87.0,1.7
Marabu,MY,1627416090.0,4.4148,114.0089,79.88,79.88,85.0,95.0,5.53
The Valley,AI,1627416090.0,18.217,-63.0578,84.09,84.09,72.0,9.0,16.91
Kalang,PH,1627416090.0,5.9197,121.3631,81.88,81.88,83.0,88.0,8.19
Port Hedland,AU,1627416091.0,-20.3167,118.5667,66.25,66.25,100.0,5.0,6.91
Tessalit,ML,1627416091.0,20.1986,1.0114,95.85,95.85,27.0,100.0,20.38
Ponferrada,ES,1627416092.0,42.5466,-6.5962,67.62,67.62,66.0,0.0,5.39
Grindavik,IS,1627416092.0,63.8424,-22.4338,54.07,54.07,82.0,0.0,19.57
Loandjili,CG,1627416093.0,-4.7561,11.8578,72.81,72.81,88.0,23.0,6.85
Ilirska Bistrica,SI,1627416093.0,45.5697,14.2408,67.39,70.34,88.0,40.0,4.09
Qui Nhon,VN,1627416094.0,13.7667,109.2333,83.97,83.97,71.0,99.0,16.44
Bloemhof,ZA,1627416094.0,-27.6469,25.607,44.91,44.91,37.0,0.0,8.23
Murud,IN,1627416095.0,18.3258,72.965,79.95,79.95,85.0,100.0,16.6
Erenhot,CN,1627416095.0,43.6475,111.9767,71.1,71.1,57.0,100.0,8.32
Tõrva,EE,1627416096.0,58.0028,25.935,64.99,70.09,97.0,100.0,8.7
Hoshangābād,IN,1627416097.0,22.75,77.7167,73.99,73.99,93.0,100.0,11.81
Sibolga,ID,1627416078.0,1.7427,98.7792,76.44,76.44,91.0,18.0,2.26
Nova Olímpia,BR,1627416097.0,-14.7972,-57.2881,89.38,89.38,30.0,95.0,9.84
Kaffrine,SN,1627416098.0,14.1059,-15.5508,87.44,87.44,55.0,100.0,15.52
Tegul'det,RU,1627416098.0,57.3064,88.1667,49.23,49.23,97.0,6.0,2.82
San-Pédro,CI,1627416099.0,4.7485,-6.6363,76.14,76.14,81.0,100.0,7.31
Codajás,BR,1627416099.0,-3.8367,-62.0569,94.87,94.87,34.0,51.0,3.31
Abhā,SA,1627415602.0,18.2164,42.5053,64.65,67.82,88.0,28.0,0.0
Coromandel,BR,1627416100.0,-18.4733,-47.2003,78.48,78.48,25.0,1.0,4.99
Buala,SB,1627416100.0,-8.145,159.5921,79.65,79.65,84.0,90.0,9.66
Codrington,AU,1627416101.0,-38.2667,141.9667,50.11,50.11,84.0,34.0,21.65
Skjervøy,NO,1627416101.0,70.0311,20.9714,47.73,47.73,95.0,79.0,1.3
Ankazobe,MG,1627416102.0,-18.3167,47.1167,55.81,55.81,71.0,76.0,3.65
Prince Rupert,CA,1627415965.0,54.3161,-130.3201,60.31,60.89,74.0,90.0,2.3
Nizāmābād,IN,1627416102.0,18.6667,78.1167,75.63,75.63,80.0,100.0,11.88
Sorso,IT,1627416103.0,40.8,8.5772,77.49,77.49,69.0,3.0,3.09
Boyolangu,ID,1627416103.0,-8.1181,111.8935,71.8,71.8,92.0,60.0,2.44
Touros,BR,1627416104.0,-5.1989,-35.4608,79.92,79.92,75.0,0.0,14.67
Knysna,ZA,1627416104.0,-34.0363,23.0471,55.78,55.78,80.0,4.0,3.65
Isangel,VU,1627416104.0,-19.55,169.2667,70.23,70.23,67.0,16.0,13.98
Birao,CF,1627416105.0,10.2849,22.7882,72.07,72.07,95.0,100.0,7.14
Horsham,GB,1627416105.0,51.064,-0.3272,63.25,65.71,73.0,75.0,8.05
Kiama,AU,1627416106.0,-34.6833,150.8667,57.97,59.58,58.0,91.0,13.0
Ambilobe,MG,1627416106.0,-13.2,49.05,66.97,66.97,83.0,10.0,3.38
Tevaitoa,PF,1627416106.0,-16.7833,-151.5,78.04,78.04,76.0,34.0,10.85
Camapuã,BR,1627415932.0,-19.5314,-54.0439,82.8,82.8,41.0,60.0,15.43
Weymouth,US,1627416107.0,42.2209,-70.9398,87.08,93.38,47.0,90.0,1.99
Qiongshan,CN,1627416108.0,20.0058,110.3542,82.35,82.35,75.0,100.0,4.76
Gamovo,RU,1627416108.0,57.8652,56.1056,47.82,47.82,87.0,0.0,4.47
Constitución,CL,1627415902.0,-35.3333,-72.4167,54.32,54.32,55.0,0.0,13.58
Dmytrivka,UA,1627416109.0,45.9717,28.9864,77.49,77.49,43.0,60.0,6.69
Khanbari,NP,1627416109.0,27.3747,87.2039,73.31,73.31,91.0,98.0,0.6
Praia da Vitória,PT,1627416110.0,38.7333,-27.0667,76.75,76.75,77.0,33.0,10.38
Pecos,US,1627416111.0,31.4229,-103.4932,97.79,99.43,19.0,1.0,9.22
Bizhbulyak,RU,1627416111.0,53.6967,54.2642,58.46,58.46,82.0,58.0,6.04
Lata,PT,1627415910.0,40.1629,-8.3327,65.82,67.35,77.0,0.0,5.88
Butembo,CD,1627415604.0,0.15,29.2833,61.07,61.07,78.0,88.0,1.7
San Policarpo,PH,1627415886.0,12.1791,125.5072,80.44,80.44,77.0,96.0,10.16
Hobyo,SO,1627416102.0,5.3505,48.5268,79.27,79.27,59.0,100.0,22.57
Bridlington,GB,1627416112.0,54.0831,-0.1919,63.03,64.58,80.0,100.0,4.27
Varca,IN,1627416113.0,15.2167,73.9167,79.27,79.27,85.0,100.0,14.25
Longonjo,AO,1627416113.0,-12.9067,15.2533,62.08,62.08,23.0,1.0,4.0
Bebra,DE,1627416114.0,50.9667,9.8,62.83,66.0,93.0,100.0,1.01
Barão de Melgaço,BR,1627416114.0,-16.1944,-55.9675,91.92,91.92,28.0,99.0,11.18
Benjamin Constant,BR,1627416114.0,-4.3831,-70.0311,87.66,87.66,57.0,40.0,2.55
Sembakung,ID,1627416115.0,3.8167,117.25,75.27,75.27,94.0,89.0,1.07
Rørvik,NO,1627415901.0,64.8621,11.2373,75.31,75.31,50.0,20.0,4.61
Xingyi,CN,1627416116.0,24.1877,102.817,60.87,60.87,94.0,67.0,1.7
Boa Vista,BR,1627416116.0,2.8197,-60.6733,85.98,85.98,66.0,75.0,12.66
Conakry,GN,1627415945.0,9.538,-13.6773,78.87,78.87,89.0,75.0,11.5
Mayumba,GA,1627415572.0,-3.432,10.6554,72.14,72.14,92.0,79.0,6.08
Hofn,IS,1627416034.0,64.2539,-15.2082,53.94,53.94,84.0,86.0,4.36
Maningrida,AU,1627416118.0,-12.0667,134.2667,68.61,68.61,95.0,65.0,6.8
Mineros,BO,1627416118.0,-17.1167,-63.2333,67.62,67.62,23.0,97.0,14.67
Dennis,US,1627416039.0,41.7354,-70.1939,80.96,86.95,76.0,86.0,4.0
Novikovo,RU,1627416119.0,51.1537,37.8879,72.9,72.9,47.0,79.0,1.03
Kyzyl-Suu,KG,1627416119.0,42.3414,78.0056,67.33,67.33,46.0,78.0,1.77
Banamba,ML,1627416120.0,13.55,-7.45,83.23,83.23,60.0,53.0,4.23
Kamaishi,JP,1627416120.0,39.2667,141.8833,72.03,72.03,97.0,100.0,17.85
Sindou,BF,1627416120.0,10.6667,-5.1667,77.09,77.09,78.0,100.0,2.48
Itaituba,BR,1627415956.0,-4.2761,-55.9836,95.16,95.16,46.0,20.0,6.91
Brasiléia,BR,1627416077.0,-11.0161,-68.7481,83.84,83.84,55.0,99.0,7.18
Charters Towers,AU,1627416121.0,-20.1,146.2667,56.26,56.26,89.0,2.0,7.45
Cockburn Town,TC,1627415890.0,21.4612,-71.1419,85.96,85.96,66.0,40.0,13.8
Florence,IT,1627416025.0,43.7667,11.25,79.2,81.7,58.0,5.0,2.64
Dali,CN,1627416122.0,25.7,100.1833,63.5,63.5,91.0,99.0,1.97
Örnsköldsvik,SE,1627416123.0,63.2909,18.7153,70.75,73.22,52.0,18.0,3.44
Takelsa,TN,1627416124.0,36.7833,10.6333,82.81,82.81,73.0,2.0,12.03
Ténenkou,ML,1627416124.0,14.4572,-4.9169,89.2,89.2,51.0,99.0,3.94
Derzhavīnsk,KZ,1627416125.0,51.1,66.3167,60.84,60.84,46.0,5.0,5.55
Boshnyakovo,RU,1627416125.0,49.6333,142.1667,65.64,65.64,90.0,97.0,2.55
Las Tunas,CU,1627416126.0,20.9617,-76.9511,86.83,86.83,67.0,89.0,10.47
Jinxiang,CN,1627416126.0,27.4327,120.6062,80.67,80.67,94.0,100.0,8.72
Tirumullaivāsal,IN,1627416127.0,11.2333,79.8333,82.83,82.83,67.0,100.0,12.84
